district_id,district,total_actively_enrolled_students,gender_female,gender_male,gender_missing,black_or_african_american,white,pupils_in_poverty,year,all_other_races,percent_female,percent_male,percent_gender_missing,percent_black_aa,percent_white,percent_all_other_races,percent_in_poverty,objectid,shape_length,shape_area,survyear,stabr,statename,leaid,lstreet1,lstreet2,lstreet3,lcity,lstate,lzip,lzip4,lea_type_t,lea_type,gslo,gshi,sy_status,sch,member,tottch,stuteratio,locale,locale_tex,coname,coid,source,phone,lat,long
0160,Abbeville 60,2986,1414,1572,0,1018,1844,NA,2018,124,47.4,52.6,0,34.1,61.8,4.2,NA,10763,1.69516249,0.127675872,2017-2018,SC,SOUTH CAROLINA,4500690,400 Greenville Street,NA,NA,Abbeville,SC,29620,NA,Regular local school district that is NOT a component of a supervisory union,1,PK,12,Open; no change from prior year,9,3011,222.1,13.56,42,Rural: Distant,Abbeville County,45001,2017-18 School Districts,(864)366-5427,34.184569,-82.380993
0201,Aiken 01,24295,11658,12632,5,8278,12321,NA,2018,3696,48,52,0,34.1,50.7,15.2,NA,10764,3.321316928,0.261935988,2017-2018,SC,SOUTH CAROLINA,4500720,1000 Brookhaven Drive,NA,NA,Aiken,SC,29803,NA,Regular local school district that is NOT a component of a supervisory union,1,PK,12,Open; no change from prior year,40,24567,1572.1,15.63,21,Suburb: Large,Aiken County,45003,2017-18 School Districts,(803)641-2430,33.502,-81.7111
0301,Allendale 01,1142,568,574,0,1071,32,NA,2018,39,49.7,50.3,0,93.8,2.8,3.4,NA,10765,2.013325295,0.1030467728,2017-2018,SC,SOUTH CAROLINA,4500750,3249 Allendale-Fairfax Highway,NA,NA,Fairfax,SC,29827,NA,Regular local school district that is NOT a component of a supervisory union,1,PK,12,Open; no change from prior year,4,1192,86.4,13.8,41,Rural: Fringe,Allendale County,45005,2017-18 School Districts,(803)584-4603,32.982529,-81.271382
0401,Anderson 01,10082,4876,5206,0,629,8179,NA,2018,1274,48.4,51.6,0,6.2,81.1,12.6,NA,10766,1.137275927,0.04011772725,2017-2018,SC,SOUTH CAROLINA,4500780,801 North Hamilton Street,NA,NA,Williamston,SC,29697,NA,Regular local school district that is NOT a component of a supervisory union,1,PK,12,Open; no change from prior year,14,10079,566.8,17.78,21,Suburb: Large,Anderson County,45007,2017-18 School Districts,(864)847-7344,34.62897,-82.476121
0402,Anderson 02,3791,1896,1895,0,556,2916,NA,2018,319,50,50,0,14.7,76.9,8.4,NA,10767,1.125464375,0.03966404363,2017-2018,SC,SOUTH CAROLINA,4500810,10990 Belton-Honea Path Highway,NA,NA,Honea Path,SC,29654,NA,Regular local school district that is NOT a component of a supervisory union,1,PK,12,Open; no change from prior year,7,3790,229.9,16.49,41,Rural: Fringe,Anderson County,45007,2017-18 School Districts,(864)369-7364,34.475673,-82.444614
0403,Anderson 03,2551,1265,1286,0,216,2132,NA,2018,203,49.6,50.4,0,8.5,83.6,8,NA,10768,0.9414000153,0.04231480309,2017-2018,SC,SOUTH CAROLINA,4500840,335 West Front Street,NA,NA,Iva,SC,29655,NA,Regular local school district that is NOT a component of a supervisory union,1,PK,12,Open; no change from prior year,5,2595,178,14.58,41,Rural: Fringe,Anderson County,45007,2017-18 School Districts,(864)348-6196,34.302887,-82.66663
0404,Anderson 04,2873,1399,1474,0,445,2189,NA,2018,239,48.7,51.3,0,15.5,76.2,8.3,NA,10769,1.169669351,0.0419104466,2017-2018,SC,SOUTH CAROLINA,4500870,315 East Queen Street,NA,NA,Pendleton,SC,29670,NA,Regular local school district that is NOT a component of a supervisory union,1,PK,12,Open; no change from prior year,6,2877,195.9,14.69,41,Rural: Fringe,Anderson County,45007,2017-18 School Districts,(864)403-2000,34.65183,-82.777091
0405,Anderson 05,13102,6396,6706,0,4340,6748,NA,2018,2014,48.8,51.2,0,33.1,51.5,15.4,NA,10770,0.9077592324,0.03038299724,2017-2018,SC,SOUTH CAROLINA,4500900,400 Pearman Dairy Road,NA,NA,Anderson,SC,29625,NA,Regular local school district that is NOT a component of a supervisory union,1,PK,12,Open; no change from prior year,21,13208,874.7,15.1,23,Suburb: Small,Anderson County,45007,2017-18 School Districts,(864)260-5000,34.5109,-82.6877
0501,Bamberg 01,1349,645,704,0,748,544,NA,2018,57,47.8,52.2,0,55.4,40.3,4.2,NA,10771,1.655424862,0.06111331713,2017-2018,SC,SOUTH CAROLINA,4500930,3830 Faust Street,NA,NA,Bamberg,SC,29003,NA,Regular local school district that is NOT a component of a supervisory union,1,PK,12,Open; no change from prior year,3,1375,98.5,13.96,41,Rural: Fringe,Bamberg County,45009,2017-18 School Districts,(803)245-3053,33.3024,-81.023791
0502,Bamberg 02,653,331,322,0,619,11,NA,2018,23,50.7,49.3,0,94.8,1.7,3.5,NA,10772,1.367679767,0.03797253815,2017-2018,SC,SOUTH CAROLINA,4500960,62 Holly Avenue,NA,NA,Denmark,SC,29042,NA,Regular local school district that is NOT a component of a supervisory union,1,PK,12,Open; no change from prior year,3,666,58,11.48,32,Town: Distant,Bamberg County,45009,2017-18 School Districts,(803)793-3346,33.31727,-81.151981
0619,Barnwell 19,593,293,300,0,474,83,NA,2018,36,49.4,50.6,0,79.9,14,6.1,NA,10773,0.7939757082,0.02294897372,2017-2018,SC,SOUTH CAROLINA,4501020,297 Pascallas Street,NA,NA,Blackville,SC,29817,NA,Regular local school district that is NOT a component of a supervisory union,1,PK,12,Open; no change from prior year,3,614,43,14.28,42,Rural: Distant,Barnwell County,45011,2017-18 School Districts,(803)284-5605,33.35669,-81.27183
0629,Barnwell 29,885,427,458,0,465,371,NA,2018,49,48.2,51.8,0,52.5,41.9,5.5,NA,10774,0.8246026551,0.02278241305,2017-2018,SC,SOUTH CAROLINA,4501050,12255 Main Street,NA,NA,Williston,SC,29853,NA,Regular local school district that is NOT a component of a supervisory union,1,PK,12,Open; no change from prior year,3,893,67.5,13.23,42,Rural: Distant,Barnwell County,45011,2017-18 School Districts,(803)266-7878,33.396529,-81.412122
0645,Barnwell 45,2178,1080,1098,0,1042,934,NA,2018,202,49.6,50.4,0,47.8,42.9,9.3,NA,10775,1.50575296,0.04640388618,2017-2018,SC,SOUTH CAROLINA,4501080,770 Hagood Avenue,NA,NA,Barnwell,SC,29812,NA,Regular local school district that is NOT a component of a supervisory union,1,PK,12,Open; no change from prior year,4,2225,147.8,15.05,32,Town: Distant,Barnwell County,45011,2017-18 School Districts,(803)541-1300,33.241161,-81.35504
0701,Beaufort 01,21961,10722,11239,0,5896,8806,NA,2018,7259,48.8,51.2,0,26.8,40.1,33.1,NA,10776,19.39909236,0.14396772,2017-2018,SC,SOUTH CAROLINA,4501110,2900 Mink Point Boulevard,NA,NA,Beaufort,SC,29902,NA,Regular local school district that is NOT a component of a supervisory union,1,PK,12,Open; no change from prior year,33,22147,1655.8,13.38,13,City: Small,Beaufort County,45013,2017-18 School Districts,(843)322-2300,32.407753,-80.717136
0801,Berkeley 01,34843,17034,17809,0,10323,17429,NA,2018,7091,48.9,51.1,0,29.6,50,20.4,NA,10777,4.700551531,0.3066967416,2017-2018,SC,SOUTH CAROLINA,4501170,229 Main Street,NA,NA,Moncks Corner,SC,29461,NA,Regular local school district that is NOT a component of a supervisory union,1,PK,12,Open; no change from prior year,44,35105,2175.4,16.14,21,Suburb: Large,Berkeley County,45015,2017-18 School Districts,(843)899-8601,33.1937,-80.0077
0901,Calhoun 01,1762,846,916,0,1012,619,NA,2018,131,48,52,0,57.4,35.1,7.4,NA,10778,2.327255013,0.09882795234,2017-2018,SC,SOUTH CAROLINA,4501250,125 Herlong Avenue,NA,NA,St. Matthews,SC,29135,NA,Regular local school district that is NOT a component of a supervisory union,1,PK,12,Open; no change from prior year,3,1786,127,14.06,42,Rural: Distant,Calhoun County,45017,2017-18 School Districts,(803)655-7310,33.6706,-80.7851
1001,Charleston 01,49228,24241,24977,10,18575,23561,NA,2018,7090,49.2,50.7,0,37.7,47.9,14.4,NA,10779,27.35645158,0.2302894914,2017-2018,SC,SOUTH CAROLINA,4501440,75 Calhoun Street,NA,NA,Charleston,SC,29401,NA,Regular local school district that is NOT a component of a supervisory union,1,PK,12,Open; no change from prior year,82,49607,3458.7,14.34,12,City: Mid-size,Charleston County,45019,2017-18 School Districts,(843)937-6318,32.7882,-79.9309
1101,Cherokee 01,8780,4299,4481,0,2294,5632,NA,2018,854,49,51,0,26.1,64.1,9.7,NA,10780,1.632365766,0.09830791485,2017-2018,SC,SOUTH CAROLINA,4501500,141 Twin Lakes Road,NA,NA,Gaffney,SC,29341,NA,Regular local school district that is NOT a component of a supervisory union,1,PK,12,Open; no change from prior year,19,8947,618.6,14.46,31,Town: Fringe,Cherokee County,45021,2017-18 School Districts,(864)206-2201,35.06855,-81.685461
1201,Chester 01,5148,2517,2628,3,2397,2402,NA,2018,349,48.9,51,0.1,46.6,46.7,6.8,NA,10781,1.803059189,0.1493537389,2017-2018,SC,SOUTH CAROLINA,4501530,509 District Office Drive,NA,NA,Chester,SC,29706,NA,Regular local school district that is NOT a component of a supervisory union,1,PK,12,Open; no change from prior year,12,5302,390.9,13.56,42,Rural: Distant,Chester County,45023,2017-18 School Districts,(803)385-6122,34.715066,-81.179638
1301,Chesterfield 01,7068,3503,3565,0,2712,3573,NA,2018,783,49.6,50.4,0,38.4,50.6,11.1,NA,10782,2.442927071,0.2051429728,2017-2018,SC,SOUTH CAROLINA,4501560,401 West Boulevard,NA,NA,Chesterfield,SC,29709,NA,Regular local school district that is NOT a component of a supervisory union,1,PK,12,Open; no change from prior year,16,7199,497.8,14.46,42,Rural: Distant,Chesterfield County,45025,2017-18 School Districts,(843)623-2175,34.73445,-80.091202
1401,Clarendon 01,764,375,389,0,709,33,NA,2018,22,49.1,50.9,0,92.8,4.3,2.9,NA,10783,1.397659457,0.06481233734,2017-2018,SC,SOUTH CAROLINA,4501740,12 South Church Street,NA,NA,Summerton,SC,29148,NA,Regular local school district that is NOT a component of a supervisory union,1,PK,12,Open; no change from prior year,4,757,57,13.28,42,Rural: Distant,Clarendon County,45027,2017-18 School Districts,(803)485-2325,33.606992,-80.353112
1402,Clarendon 02,2902,1392,1510,0,1835,788,NA,2018,279,48,52,0,63.2,27.2,9.6,NA,10784,1.547665554,0.07936355506,2017-2018,SC,SOUTH CAROLINA,4501770,15 Major Drive,NA,NA,Manning,SC,29102,NA,Regular local school district that is NOT a component of a supervisory union,1,PK,12,Open; no change from prior year,6,2892,187,15.47,32,Town: Distant,Clarendon County,45027,2017-18 School Districts,(803)435-4435,33.70059,-80.212781
1403,Clarendon 03,1258,646,612,0,306,864,NA,2018,88,51.4,48.6,0,24.3,68.7,7,NA,10785,0.8568743815,0.03097428814,2017-2018,SC,SOUTH CAROLINA,4501800,1177 Atkinson Street,NA,NA,Turbeville,SC,29162,NA,Regular local school district that is NOT a component of a supervisory union,1,PK,12,Open; no change from prior year,2,1265,78,16.22,42,Rural: Distant,Clarendon County,45027,2017-18 School Districts,(843)659-2188,33.89193,-80.011801
1501,Colleton 01,5625,2755,2870,0,2644,2347,NA,2018,634,49,51,0,47,41.7,11.3,NA,10786,6.586556687,0.2640827398,2017-2018,SC,SOUTH CAROLINA,4501830,213 North Jefferies Boulevard,NA,NA,Walterboro,SC,29488,NA,Regular local school district that is NOT a component of a supervisory union,1,PK,12,Open; no change from prior year,9,5726,362,15.82,41,Rural: Fringe,Colleton County,45029,2017-18 School Districts,(843)782-4510,32.903191,-80.667116
1601,Darlington 01,9964,4973,4991,0,5157,4035,NA,2018,772,49.9,50.1,0,51.8,40.5,7.7,NA,10787,2.288785332,0.1436799296,2017-2018,SC,SOUTH CAROLINA,4501860,120 East Smith Avenue,NA,NA,Darlington,SC,29532,NA,Regular local school district that is NOT a component of a supervisory union,1,PK,12,Open; no change from prior year,22,10035,665,15.09,23,Suburb: Small,Darlington County,45031,2017-18 School Districts,(843)398-2267,34.319206,-79.881259
1703,Dillon 03,1632,780,852,0,501,985,NA,2018,146,47.8,52.2,0,30.7,60.4,8.9,NA,10789,1.090250304,0.03824915114,2017-2018,SC,SOUTH CAROLINA,4501950,205 King Street,NA,NA,Latta,SC,29565,NA,Regular local school district that is NOT a component of a supervisory union,1,PK,12,Open; no change from prior year,3,1681,95,17.69,42,Rural: Distant,Dillon County,45033,2017-18 School Districts,(843)752-7101,34.339881,-79.427095
1704,Dillon 04,4154,2052,2102,0,2478,1156,NA,2018,520,49.4,50.6,0,59.7,27.8,12.5,NA,10788,1.532987194,0.06504139207,2017-2018,SC,SOUTH CAROLINA,4501920,1738 Highway 301 North,NA,NA,Dillon,SC,29536,NA,Regular local school district that is NOT a component of a supervisory union,1,PK,12,Open; no change from prior year,8,4162,241,17.27,32,Town: Distant,Dillon County,45033,2017-18 School Districts,(843)774-1200,34.434282,-79.357645
1802,Dorchester 02,25958,12773,13185,0,7669,13999,NA,2018,4290,49.2,50.8,0,29.5,53.9,16.5,NA,10790,1.58642726,0.05806015986,2017-2018,SC,SOUTH CAROLINA,4502010,115 Devon Road,NA,NA,Summerville,SC,29483,NA,Regular local school district that is NOT a component of a supervisory union,1,PK,12,Open; no change from prior year,24,26243,1615.3,16.25,21,Suburb: Large,Dorchester County,45035,2017-18 School Districts,(843)873-2901,33.00874,-80.238725
1804,Dorchester 04,2354,1111,1243,0,1102,1016,NA,2018,236,47.2,52.8,0,46.8,43.2,10,NA,10762,1.690081451,0.08471691279,2017-2018,SC,SOUTH CAROLINA,4500002,500 Ridge Street,NA,NA,St. George,SC,29477,NA,Regular local school district that is NOT a component of a supervisory union,1,PK,12,Open; no change from prior year,6,2348,179,13.12,42,Rural: Distant,Dorchester County,45035,2017-18 School Districts,(843)563-4535,33.1899,-80.5742
1901,Edgefield 01,3464,1711,1753,0,1441,1654,NA,2018,369,49.4,50.6,0,41.6,47.7,10.7,NA,10791,1.692760014,0.1278214844,2017-2018,SC,SOUTH CAROLINA,4502070,3 Par Drive,NA,NA,Johnston,SC,29832,NA,Regular local school district that is NOT a component of a supervisory union,1,PK,12,Open; no change from prior year,8,3494,252.2,13.85,41,Rural: Fringe,Edgefield County,45037,2017-18 School Districts,(803)275-4601,33.80683,-81.861951
2001,Fairfield 01,2741,1341,1400,0,2349,284,NA,2018,108,48.9,51.1,0,85.7,10.4,3.9,NA,10792,1.930678644,0.1802447154,2017-2018,SC,SOUTH CAROLINA,4502100,1226 US Highway 321 Bypass South,NA,NA,Winnsboro,SC,29180,NA,Regular local school district that is NOT a component of a supervisory union,1,PK,12,Open; no change from prior year,8,2744,259,10.59,41,Rural: Fringe,Fairfield County,45039,2017-18 School Districts,(803)635-4607,34.389257,-81.102132
2101,Florence 01,16158,7973,8185,0,8607,6172,NA,2018,1379,49.3,50.7,0,53.3,38.2,8.5,NA,10793,1.709159886,0.07482731277,2017-2018,SC,SOUTH CAROLINA,4502130,319 South Dargan Street,NA,NA,Florence,SC,29506,NA,Regular local school district that is NOT a component of a supervisory union,1,PK,12,Open; no change from prior year,24,16497,1141.5,14.45,13,City: Small,Florence County,45041,2017-18 School Districts,(843)669-4141,34.1928,-79.7658
2102,Florence 02,1131,529,602,0,408,629,NA,2018,94,46.8,53.2,0,36.1,55.6,8.3,NA,10794,1.111690977,0.03835490189,2017-2018,SC,SOUTH CAROLINA,4502160,2121 South Pamplico Highway,NA,NA,Pamplico,SC,29583,NA,Regular local school district that is NOT a component of a supervisory union,1,PK,12,Open; no change from prior year,2,1171,80.6,14.53,42,Rural: Distant,Florence County,45041,2017-18 School Districts,(843)493-2502,33.94195,-79.551081
2103,Florence 03,3454,1719,1735,0,2228,958,NA,2018,268,49.8,50.2,0,64.5,27.7,7.8,NA,10795,1.268501267,0.04840357965,2017-2018,SC,SOUTH CAROLINA,4502190,125 South Blanding Street,NA,NA,Lake City,SC,29560,NA,Regular local school district that is NOT a component of a supervisory union,1,PK,12,Open; no change from prior year,8,3483,238.3,14.62,32,Town: Distant,Florence County,45041,2017-18 School Districts,(843)374-8652,33.8679,-79.747741
2104,Florence 04,699,315,384,0,564,54,NA,2018,81,45.1,54.9,0,80.7,7.7,11.6,NA,10796,0.8211984165,0.02073245426,2017-2018,SC,SOUTH CAROLINA,4502220,304 Kemper Street,NA,NA,Timmonsville,SC,29161,NA,Regular local school district that is NOT a component of a supervisory union,1,PK,12,Open; no change from prior year,3,674,54,12.48,41,Rural: Fringe,Florence County,45041,2017-18 School Districts,(843)346-3956,34.122583,-79.93504
2105,Florence 05,1234,612,622,0,348,801,NA,2018,85,49.6,50.4,0,28.2,64.9,6.9,NA,10797,0.9346635673,0.02101474123,2017-2018,SC,SOUTH CAROLINA,4502250,156 East Marion Street,NA,NA,Johnsonville,SC,29555,NA,Regular local school district that is NOT a component of a supervisory union,1,PK,12,Open; no change from prior year,3,1230,91,13.52,42,Rural: Distant,Florence County,45041,2017-18 School Districts,(843)386-2358,33.8174,-79.4459
2201,Georgetown 01,9390,4578,4812,0,4106,4634,NA,2018,650,48.8,51.2,0,43.7,49.4,6.9,NA,10798,9.194626156,0.2074360376,2017-2018,SC,SOUTH CAROLINA,4502280,2018 Church Street,NA,NA,Georgetown,SC,29440,NA,Regular local school district that is NOT a component of a supervisory union,1,PK,12,Open; no change from prior year,19,9443,662.7,14.25,32,Town: Distant,Georgetown County,45043,2017-18 School Districts,(843)436-7000,33.3808,-79.2958
2301,Greenville 01,75220,36626,38587,7,16981,40746,NA,2018,17493,48.7,51.3,0,22.6,54.2,23.3,NA,10799,3.4397969,0.2064546049,2017-2018,SC,SOUTH CAROLINA,4502310,301 East Camperdown Way,NA,NA,Greenville,SC,29601,NA,Regular local school district that is NOT a component of a supervisory union,1,PK,12,Open; no change from prior year,91,75500,4822.7,15.66,21,Suburb: Large,Greenville County,45045,2017-18 School Districts,(864)355-8860,34.8437,-82.3964
2450,Greenwood 50,8805,4313,4491,1,3721,3540,NA,2018,1544,49,51,0,42.3,40.2,17.5,NA,10800,1.702259969,0.08211250225,2017-2018,SC,SOUTH CAROLINA,4502340,1855 Calhoun Road,NA,NA,Greenwood,SC,29649,NA,Regular local school district that is NOT a component of a supervisory union,1,PK,12,Open; no change from prior year,14,9040,571.8,15.81,32,Town: Distant,Greenwood County,45047,2017-18 School Districts,(864)941-5400,34.2181,-82.2034
2451,Greenwood 51,934,448,486,0,142,689,NA,2018,103,48,52,0,15.2,73.8,11,NA,10801,0.8334677628,0.02196534765,2017-2018,SC,SOUTH CAROLINA,4502370,56 South Greenwood Avenue,NA,NA,Ware Shoals,SC,29692,NA,Regular local school district that is NOT a component of a supervisory union,1,PK,12,Open; no change from prior year,3,956,65,14.71,42,Rural: Distant,Greenwood County,45047,2017-18 School Districts,(864)456-7496,34.393145,-82.238603
2452,Greenwood 52,1559,750,809,0,331,1130,NA,2018,98,48.1,51.9,0,21.2,72.5,6.3,NA,10802,0.8835359373,0.02691256398,2017-2018,SC,SOUTH CAROLINA,4502400,605 Johnston Road,NA,NA,Ninety Six,SC,29666,NA,Regular local school district that is NOT a component of a supervisory union,1,PK,12,Open; no change from prior year,4,1571,96.8,16.23,42,Rural: Distant,Greenwood County,45047,2017-18 School Districts,(864)543-3100,34.16403,-82.018531
2501,Hampton 01,2254,1122,1132,0,1218,943,NA,2018,93,49.8,50.2,0,54,41.8,4.1,NA,10803,1.710520876,0.07654524039,2017-2018,SC,SOUTH CAROLINA,4502430,372 Pine Street East,NA,NA,Varnville,SC,29944,NA,Regular local school district that is NOT a component of a supervisory union,1,PK,12,Open; no change from prior year,7,2289,162.3,14.1,33,Town: Remote,Hampton County,45049,2017-18 School Districts,(803)943-4576,32.848605,-81.073563
2502,Hampton 02,706,350,356,0,667,5,NA,2018,34,49.6,50.4,0,94.5,0.7,4.8,NA,10804,1.460922267,0.06369584587,2017-2018,SC,SOUTH CAROLINA,4502460,319 Fourth Street East,NA,NA,Estill,SC,29918,NA,Regular local school district that is NOT a component of a supervisory union,1,PK,12,Open; no change from prior year,3,721,57,12.65,42,Rural: Distant,Hampton County,45049,2017-18 School Districts,(803)625-5000,32.755073,-81.235624
2601,Horry 01,44423,21531,22892,0,8373,27232,NA,2018,8818,48.5,51.5,0,18.8,61.3,19.9,NA,10805,5.013285802,0.2877766287,2017-2018,SC,SOUTH CAROLINA,4502490,335 Four Mile Road,NA,NA,Conway,SC,29526,NA,Regular local school district that is NOT a component of a supervisory union,1,PK,12,Open; no change from prior year,56,44801,2957.4,15.15,22,Suburb: Mid-size,Horry County,45051,2017-18 School Districts,(843)488-6700,33.8766,-79.0987
2701,Jasper 01,2638,1280,1358,0,1569,313,NA,2018,756,48.5,51.5,0,59.5,11.9,28.7,NA,10806,5.099414058,0.1637677779,2017-2018,SC,SOUTH CAROLINA,4502520,10942 North Jacob Smart Boulevard,NA,NA,Ridgeland,SC,29936,NA,Regular local school district that is NOT a component of a supervisory union,1,PK,12,Open; no change from prior year,4,2675,188,14.23,41,Rural: Fringe,Jasper County,45053,2017-18 School Districts,(843)489-8892,32.482523,-80.979113
2801,Kershaw 01,10638,5110,5528,0,2782,6488,NA,2018,1368,48,52,0,26.2,61,12.9,NA,10807,2.536116885,0.187834382,2017-2018,SC,SOUTH CAROLINA,4502550,2029 West DeKalb Street,NA,NA,Camden,SC,29020,NA,Regular local school district that is NOT a component of a supervisory union,1,PK,12,Open; no change from prior year,19,10767,685.3,15.71,21,Suburb: Large,Kershaw County,45055,2017-18 School Districts,(803)432-8416,34.24589,-80.634241
2901,Lancaster 01,13153,6454,6699,0,3504,7874,NA,2018,1775,49.1,50.9,0,26.6,59.9,13.5,NA,10808,2.535663095,0.1414170135,2017-2018,SC,SOUTH CAROLINA,4502580,300 South Catawba Street,NA,NA,Lancaster,SC,29720,NA,Regular local school district that is NOT a component of a supervisory union,1,PK,12,Open; no change from prior year,20,13247,855.9,15.48,32,Town: Distant,Lancaster County,45057,2017-18 School Districts,(803)286-6972,34.7179,-80.7707
3055,Laurens 55,5673,2718,2955,0,1714,3096,NA,2018,863,47.9,52.1,0,30.2,54.6,15.2,NA,10809,1.93815914,0.08917572002,2017-2018,SC,SOUTH CAROLINA,4502610,301 Hillcrest Drive,NA,NA,Laurens,SC,29360,NA,Regular local school district that is NOT a component of a supervisory union,1,PK,12,Open; no change from prior year,9,5781,374.5,15.44,41,Rural: Fringe,Laurens County,45059,2017-18 School Districts,(864)984-3568,34.5043,-82.017111
3056,Laurens 56,3030,1494,1536,0,1122,1585,NA,2018,323,49.3,50.7,0,37,52.3,10.7,NA,10810,1.564126763,0.07500841254,2017-2018,SC,SOUTH CAROLINA,4502640,211 North Broad Street Suite B,NA,NA,Clinton,SC,29325,NA,Regular local school district that is NOT a component of a supervisory union,1,PK,12,Open; no change from prior year,6,2991,190.6,15.69,41,Rural: Fringe,Laurens County,45059,2017-18 School Districts,(864)833-0800,34.474339,-81.880877
3101,Lee 01,1933,935,998,0,1771,109,NA,2018,44,48.4,51.6,0,91.6,5.6,2.3,NA,10811,1.824372083,0.104133053,2017-2018,SC,SOUTH CAROLINA,4502670,310 Roland Street,NA,NA,Bishopville,SC,29010,NA,Regular local school district that is NOT a component of a supervisory union,1,PK,12,Open; no change from prior year,6,1958,139.5,14.04,41,Rural: Fringe,Lee County,45061,2017-18 School Districts,(803)484-5327,34.226021,-80.251722
3201,Lexington 01,26122,12746,13375,1,3006,19232,NA,2018,3884,48.8,51.2,0,11.5,73.6,14.9,NA,10812,1.854334993,0.08999412451,2017-2018,SC,SOUTH CAROLINA,4502700,100 Tarrar Springs Road,NA,NA,Lexington,SC,29072,NA,Regular local school district that is NOT a component of a supervisory union,1,PK,12,Open; no change from prior year,30,26289,1839.2,14.29,21,Suburb: Large,Lexington County,45063,2017-18 School Districts,(803)821-1000,33.9775,-81.2106
3202,Lexington 02,8876,4283,4592,1,2934,3739,NA,2018,2201,48.3,51.7,0,33.1,42.1,24.8,NA,10813,0.7888248316,0.02376371917,2017-2018,SC,SOUTH CAROLINA,4502730,715 Ninth Street,NA,NA,West Columbia,SC,29169,NA,Regular local school district that is NOT a component of a supervisory union,1,PK,12,Open; no change from prior year,14,8900,638.6,13.94,21,Suburb: Large,Lexington County,45063,2017-18 School Districts,(803)796-4708,33.98634,-81.064761
3203,Lexington 03,2058,1009,1049,0,680,1042,NA,2018,336,49,51,0,33,50.6,16.3,NA,10814,1.55308775,0.03764330818,2017-2018,SC,SOUTH CAROLINA,4502760,338 West Columbia Avenue,NA,NA,Batesburg,SC,29006,NA,Regular local school district that is NOT a component of a supervisory union,1,PK,12,Open; no change from prior year,4,2062,148.7,13.87,41,Rural: Fringe,Lexington County,45063,2017-18 School Districts,(803)532-4423,33.90666,-81.539917
3204,Lexington 04,3483,1651,1832,0,655,2045,NA,2018,783,47.4,52.6,0,18.8,58.7,22.5,NA,10815,0.9960597444,0.02989881109,2017-2018,SC,SOUTH CAROLINA,4502790,607 East Fifth Street,NA,NA,Swansea,SC,29160,NA,Regular local school district that is NOT a component of a supervisory union,1,PK,12,Open; no change from prior year,7,3552,216.6,16.4,41,Rural: Fringe,Lexington County,45063,2017-18 School Districts,(803)490-7000,33.733359,-81.095757
3205,Lexington 05,17210,8459,8751,0,4731,10127,NA,2018,2352,49.2,50.8,0,27.5,58.8,13.7,NA,10816,0.9357289993,0.04005231131,2017-2018,SC,SOUTH CAROLINA,4502820,1020 Dutch Fork Road,NA,NA,Irmo,SC,29063,NA,Regular local school district that is NOT a component of a supervisory union,1,PK,12,Open; no change from prior year,22,17224,1318.4,13.06,21,Suburb: Large,Richland County,45079,2017-18 School Districts,(803)476-8000,34.1244,-81.2177
3301,McCormick 01,782,380,402,0,601,161,NA,2018,20,48.6,51.4,0,76.9,20.6,2.6,NA,10818,2.074617405,0.09943272604,2017-2018,SC,SOUTH CAROLINA,4503000,821 North Mine Street,NA,NA,McCormick,SC,29835,NA,Regular local school district that is NOT a component of a supervisory union,1,PK,12,Open; no change from prior year,3,744,67,11.1,42,Rural: Distant,McCormick County,45065,2017-18 School Districts,(864)852-2435,33.915565,-82.30383
3410,Marion 10,4508,2213,2295,0,3370,841,NA,2018,297,49.1,50.9,0,74.8,18.7,6.6,NA,10842,2.725083838,0.1250130871,2017-2018,SC,SOUTH CAROLINA,4503908,719 North Main Street,NA,NA,Marion,SC,29571,NA,Regular local school district that is NOT a component of a supervisory union,1,PK,12,Open; no change from prior year,11,4578,339.7,13.48,41,Rural: Fringe,Marion County,45067,2017-18 School Districts,(843)423-1811,34.1846,-79.400361
3501,Marlboro 01,3911,1899,2012,0,2301,1160,NA,2018,450,48.6,51.4,0,58.8,29.7,11.5,NA,10817,1.912598945,0.1235651722,2017-2018,SC,SOUTH CAROLINA,4502970,122 Broad Street,NA,NA,Bennettsville,SC,29512,NA,Regular local school district that is NOT a component of a supervisory union,1,PK,12,Open; no change from prior year,8,3962,264.8,14.96,42,Rural: Distant,Marlboro County,45069,2017-18 School Districts,(843)479-4016,34.615289,-79.683615
3601,Newberry 01,5979,2914,3065,0,2056,2701,NA,2018,1222,48.7,51.3,0,34.4,45.2,20.4,NA,10819,2.20839081,0.1641479817,2017-2018,SC,SOUTH CAROLINA,4503030,3419 Main Street,NA,NA,Newberry,SC,29108,NA,Regular local school district that is NOT a component of a supervisory union,1,PK,12,Open; no change from prior year,14,6084,452,13.46,41,Rural: Fringe,Newberry County,45071,2017-18 School Districts,(803)321-2600,34.284042,-81.576027
3701,Oconee 01,10483,5084,5399,0,1007,7892,NA,2018,1584,48.5,51.5,0,9.6,75.3,15.1,NA,10820,2.685768054,0.1717666744,2017-2018,SC,SOUTH CAROLINA,4503060,414 South Pine Street,NA,NA,Walhalla,SC,29691,NA,Regular local school district that is NOT a component of a supervisory union,1,PK,12,Open; no change from prior year,17,10518,789.5,13.32,42,Rural: Distant,Oconee County,45073,2017-18 School Districts,(864)886-4400,34.759952,-83.073531
3803,Orangeburg 03,2631,1327,1304,0,2299,225,NA,2018,107,50.4,49.6,0,87.4,8.6,4.1,NA,10821,1.551293511,0.07321626067,2017-2018,SC,SOUTH CAROLINA,4503150,1654 Camden Road,NA,NA,Holly Hill,SC,29059,NA,Regular local school district that is NOT a component of a supervisory union,1,PK,12,Open; no change from prior year,6,2702,203,13.31,42,Rural: Distant,Orangeburg County,45075,2017-18 School Districts,(803)496-3288,33.3849,-80.4229
3804,Orangeburg 04,3574,1743,1831,0,1609,1693,NA,2018,272,48.8,51.2,0,45,47.4,7.6,NA,10822,2.997461686,0.105188996,2017-2018,SC,SOUTH CAROLINA,4503180,6030 Slab Landing Road,NA,NA,Cope,SC,29038,NA,Regular local school district that is NOT a component of a supervisory union,1,PK,12,Open; no change from prior year,8,3708,263,14.1,42,Rural: Distant,Orangeburg County,45075,2017-18 School Districts,(803)534-8081,33.3753,-81.0057
3805,Orangeburg 05,6530,3215,3315,0,5688,488,NA,2018,354,49.2,50.8,0,87.1,7.5,5.4,NA,10823,2.447751348,0.1048370755,2017-2018,SC,SOUTH CAROLINA,4503210,578 Ellis Avenue,NA,NA,Orangeburg,SC,29115,NA,Regular local school district that is NOT a component of a supervisory union,1,PK,12,Open; no change from prior year,15,6568,423.3,15.52,32,Town: Distant,Orangeburg County,45075,2017-18 School Districts,(803)534-5454,33.4968,-80.8635
3901,Pickens 01,16046,7809,8237,0,1125,12719,NA,2018,2202,48.7,51.3,0,7,79.3,13.7,NA,10824,2.351957453,0.1309149853,2017-2018,SC,SOUTH CAROLINA,4503330,1348 Griffin Mill Road,NA,NA,Easley,SC,29640,NA,Regular local school district that is NOT a component of a supervisory union,1,PK,12,Open; no change from prior year,24,16278,996.1,16.34,41,Rural: Fringe,Pickens County,45077,2017-18 School Districts,(864)397-1000,34.8397,-82.6661
4001,Richland 01,23863,11831,12032,0,16873,4458,NA,2018,2532,49.6,50.4,0,70.7,18.7,10.6,NA,10825,2.689732817,0.115270414,2017-2018,SC,SOUTH CAROLINA,4503360,1616 Richland Street,NA,NA,Columbia,SC,29201,NA,Regular local school district that is NOT a component of a supervisory union,1,PK,12,Open; no change from prior year,48,24016,1928.7,12.45,12,City: Mid-size,Richland County,45079,2017-18 School Districts,(803)231-7500,34.012707,-81.030967
4002,Richland 02,27870,13804,14065,1,16586,6164,NA,2018,5120,49.5,50.5,0,59.5,22.1,18.4,NA,10826,1.597457104,0.04044433563,2017-2018,SC,SOUTH CAROLINA,4503390,763 Fashion Drive,NA,NA,Columbia,SC,29229,NA,Regular local school district that is NOT a component of a supervisory union,1,PK,12,Open; no change from prior year,33,28071,1916.4,14.65,21,Suburb: Large,Richland County,45079,2017-18 School Districts,(803)787-1910,34.126485,-80.883684
4101,Saluda 01,2312,1123,1189,0,555,844,NA,2018,913,48.6,51.4,0,24,36.5,39.5,NA,10827,1.720934877,0.08634888195,2017-2018,SC,SOUTH CAROLINA,4503460,404 North Wise Road,NA,NA,Saluda,SC,29138,NA,Regular local school district that is NOT a component of a supervisory union,1,PK,12,Open; no change from prior year,5,2340,156.2,14.98,41,Rural: Fringe,Saluda County,45081,2017-18 School Districts,(864)445-8441,34.0051,-81.775541
4201,Spartanburg 01,5064,2436,2628,0,368,4012,NA,2018,684,48.1,51.9,0,7.3,79.2,13.5,NA,10828,1.14656308,0.03574024077,2017-2018,SC,SOUTH CAROLINA,4503480,121 Wheeler Street,NA,NA,Campobello,SC,29322,NA,Regular local school district that is NOT a component of a supervisory union,1,PK,12,Open; no change from prior year,10,5179,364.8,14.2,41,Rural: Fringe,Spartanburg County,45083,2017-18 School Districts,(864)472-2846,35.1137,-82.1472
4202,Spartanburg 02,10093,4863,5209,21,1207,7066,NA,2018,1820,48.2,51.6,0.2,12,70,18,NA,10829,1.216024,0.03849766453,2017-2018,SC,SOUTH CAROLINA,4503510,3231 Old Furnace Road,NA,NA,Chesnee,SC,29323,NA,Regular local school district that is NOT a component of a supervisory union,1,PK,12,Open; no change from prior year,15,10119,639.4,15.83,22,Suburb: Mid-size,Spartanburg County,45083,2017-18 School Districts,(864)578-0128,35.05542,-81.935261
4203,Spartanburg 03,2899,1363,1536,0,426,2060,NA,2018,413,47,53,0,14.7,71.1,14.2,NA,10830,0.940366499,0.02067629564,2017-2018,SC,SOUTH CAROLINA,4503540,3535 Clifton - Glendale Road,NA,NA,Glendale,SC,29346,NA,Regular local school district that is NOT a component of a supervisory union,1,PK,12,Open; no change from prior year,7,2927,208.3,14.05,22,Suburb: Mid-size,Spartanburg County,45083,2017-18 School Districts,(864)279-6000,34.950155,-81.83646
4204,Spartanburg 04,2822,1341,1481,0,357,2024,NA,2018,441,47.5,52.5,0,12.7,71.7,15.6,NA,10831,1.328665222,0.04139540456,2017-2018,SC,SOUTH CAROLINA,4503570,118 McEdco Road,NA,NA,Woodruff,SC,29388,NA,Regular local school district that is NOT a component of a supervisory union,1,PK,12,Open; no change from prior year,4,2856,167.2,17.08,31,Town: Fringe,Spartanburg County,45083,2017-18 School Districts,(864)476-3186,34.73245,-82.015439
4205,Spartanburg 05,8546,4080,4466,0,1554,5400,NA,2018,1592,47.7,52.3,0,18.2,63.2,18.6,NA,10832,0.9780254848,0.02770402545,2017-2018,SC,SOUTH CAROLINA,4503600,100 North Danzler Road,NA,NA,Duncan,SC,29334,NA,Regular local school district that is NOT a component of a supervisory union,1,PK,12,Open; no change from prior year,12,8501,583.5,14.57,22,Suburb: Mid-size,Spartanburg County,45083,2017-18 School Districts,(864)949-2350,34.93178,-82.125081
4206,Spartanburg 06,11453,5606,5847,0,3383,4893,NA,2018,3177,48.9,51.1,0,29.5,42.7,27.7,NA,10833,1.463307379,0.03880927144,2017-2018,SC,SOUTH CAROLINA,4503630,1390 Cavalier Way,NA,NA,Roebuck,SC,29376,NA,Regular local school district that is NOT a component of a supervisory union,1,PK,12,Open; no change from prior year,14,11437,730.9,15.65,22,Suburb: Mid-size,Spartanburg County,45083,2017-18 School Districts,(864)576-4212,34.85289,-81.967331
4207,Spartanburg 07,7372,3633,3739,0,3976,2314,NA,2018,1082,49.3,50.7,0,53.9,31.4,14.7,NA,10834,0.683887168,0.01235117235,2017-2018,SC,SOUTH CAROLINA,4503660,610 Dupre Drive,NA,NA,Spartanburg,SC,29307,NA,Regular local school district that is NOT a component of a supervisory union,1,PK,12,Open; no change from prior year,12,7437,645.4,11.52,13,City: Small,Spartanburg County,45083,2017-18 School Districts,(864)594-4400,34.953662,-81.896407
4301,Sumter 01,16540,8203,8333,4,10178,4992,NA,2018,1370,49.6,50.4,0,61.5,30.2,8.3,NA,10841,2.849425519,0.1722254835,2017-2018,SC,SOUTH CAROLINA,4503902,1345 Wilson Hall Road,NA,NA,Sumter,SC,29150,NA,Regular local school district that is NOT a component of a supervisory union,1,PK,12,Open; no change from prior year,27,16782,1005,16.7,13,City: Small,Sumter County,45085,2017-18 School Districts,(803)469-6900,33.9568,-80.3983
4401,Union 01,4001,1912,2089,0,1471,2176,NA,2018,354,47.8,52.2,0,36.8,54.4,8.8,NA,10835,1.817999518,0.1314787431,2017-2018,SC,SOUTH CAROLINA,4503750,130 West Main Street,NA,NA,Union,SC,29379,NA,Regular local school district that is NOT a component of a supervisory union,1,PK,12,Open; no change from prior year,8,4040,266.5,15.16,32,Town: Distant,Union County,45087,2017-18 School Districts,(864)429-1740,34.71537,-81.624861
4501,Williamsburg 01,3824,1855,1969,0,3516,215,NA,2018,93,48.5,51.5,0,91.9,5.6,2.4,NA,10836,2.478098639,0.2358016332,2017-2018,SC,SOUTH CAROLINA,4503780,423 School Street,NA,NA,Kingstree,SC,29556,NA,Regular local school district that is NOT a component of a supervisory union,1,PK,12,Open; no change from prior year,12,3933,275.2,14.29,42,Rural: Distant,Williamsburg County,45089,2017-18 School Districts,(843)355-5571,33.668977,-79.828067
4601,York 01,5192,2540,2652,0,984,3450,NA,2018,758,48.9,51.1,0,19,66.4,14.6,NA,10837,1.331863369,0.07963276194,2017-2018,SC,SOUTH CAROLINA,4503810,1475 East Liberty Street,NA,NA,York,SC,29745,NA,Regular local school district that is NOT a component of a supervisory union,1,PK,12,Open; no change from prior year,9,5262,357.1,14.74,41,Rural: Fringe,York County,45091,2017-18 School Districts,(803)684-9916,34.9857,-81.2024
4602,York 02,7763,3699,4064,0,750,6003,NA,2018,1010,47.6,52.4,0,9.7,77.3,13,NA,10838,1.024552697,0.03601017299,2017-2018,SC,SOUTH CAROLINA,4503840,604 Bethel Street,NA,NA,Clover,SC,29710,NA,Regular local school district that is NOT a component of a supervisory union,1,PK,12,Open; no change from prior year,10,7849,551,14.25,41,Rural: Fringe,York County,45091,2017-18 School Districts,(803)810-8005,35.109,-81.2159
4603,York 03,17632,8603,9029,0,6979,7868,NA,2018,2785,48.8,51.2,0,39.6,44.6,15.8,NA,10839,1.034312487,0.04790264911,2017-2018,SC,SOUTH CAROLINA,4503870,1234 Flint Street Extension,NA,NA,Rock Hill,SC,29730,NA,Regular local school district that is NOT a component of a supervisory union,1,PK,12,Open; no change from prior year,28,17776,1224.2,14.52,13,City: Small,York County,45091,2017-18 School Districts,(803)981-1000,34.921837,-81.02309
4604,York 04,15194,7484,7710,0,1581,10656,NA,2018,2957,49.3,50.7,0,10.4,70.1,19.5,NA,10840,0.6302527941,0.01434898474,2017-2018,SC,SOUTH CAROLINA,4503900,2233 Deerfield Drive,NA,NA,Fort Mill,SC,29715,NA,Regular local school district that is NOT a component of a supervisory union,1,PK,12,Open; no change from prior year,16,15011,989.2,15.17,21,Suburb: Large,York County,45091,2017-18 School Districts,(803)548-2527,35.050485,-80.951154
